[
	{
		"name": "Aveiro",
    "lat": 40.6389,
    "long": -8.6553
	},
	{
		"name": "Beja",
    "lat": 38.0333,
    "long": -7.8833
	},
	{
		"name": "Braga",
    "lat": 41.5333,
    "long": -8.4167
	},
	{
		"name": "Bragança",
    "lat": 41.8000,
    "long": -6.7500
	},
	{
		"name": "Castelo Branco",
    "lat": 39.8230,
    "long": -7.4931
  },
	{
		"name": "Coimbra",
		"lat": 40.2111,
    "long": -8.4291
	},
  {
		"name": "Évora",
		"lat": 38.5667,
    "long": -7.9000
	},
	{
		"name": "Faro",
		"lat": 37.0161,
    "long": -7.9350
	},
	{
		"name": "Guarda",
		"lat": 40.5364,
    "long": -7.2683
	},
  {
		"name": "Ilha da Madeira",
		"lat": 32.6500,
    "long": -16.9167
	},
	{
		"name": "Ilha dos Açores",
		"lat": 37.7400,
    "long":-25.6700
	},
	{
		"name": "Leiria",
		"lat": 39.7444,
    "long": -8.8072
	},
	{
		"name": "Lisboa",
		"lat": 38.7452,
    "long": -9.1604
	},
	{
		"name": "Portalegre",
		"lat": 39.3167,
    "long": -7.4167
	},
	{
		"name": "Porto",
		"lat": 41.1495,
    "long": -8.6108
	},
	{
		"name": "Santarém",
		"lat": 39.2369,
    "long": -8.6850
	},
	{
		"name": "Setúbal",
		"lat": 38.5243,
    "long": -8.8926
	},
	{
		"name": "Viana do Castelo",
		"lat": 41.7000,
    "long": -8.8333
	},
	{
		"name": "Vila Real",
		"lat": 41.3002,
    "long": -7.7398
	},
	{
		"name": "Viseu",
		"lat": 40.6667,
    "long": -7.9167
	}
]
